transforms:
- header:
    stamp:
      sec: 1727346921
      nanosec: 785578408
    frame_id: base_link
  child_frame_id: wheel_left_link
  transform:
    translation:
      x: 0.0
      y: 0.08
      z: 0.023
    rotation:
      x: -0.6797551528118556
      y: 0.19373891934860282
      z: 0.19389326030236906
      w: 0.680296675697217
- header:
    stamp:
      sec: 1727346921
      nanosec: 785578408
    frame_id: base_link
  child_frame_id: wheel_right_link
  transform:
    translation:
      x: 0.0
      y: -0.08
      z: 0.023
    rotation:
      x: -0.6623458294621813
      y: -0.24677892705555043
      z: -0.24697552201488654
      w: 0.6628734833140039
---
transforms:
- header:
    stamp:
      sec: 1727346921
      nanosec: 785578408
    frame_id: odom
  child_frame_id: base_footprint
  transform:
    translation:
      x: 0.1637575082721515
      y: -0.12288687997406561
      z: 0.0
    rotation:
      x: 0.0
      y: 0.0
      z: -0.31694131161713246
      w: 0.94844515128204
---
transforms:
- header:
    stamp:
      sec: 1727346921
      nanosec: 835573620
    frame_id: odom
  child_frame_id: base_footprint
  transform:
    translation:
      x: 0.1637575082721515
      y: -0.12288687997406561
      z: 0.0
    rotation:
      x: 0.0
      y: 0.0
      z: -0.3169407745655865
      w: 0.9484453307480437
---
transforms:
- header:
    stamp:
      sec: 1727346921
      nanosec: 885502296
    frame_id: base_link
  child_frame_id: wheel_left_link
  transform:
    translation:
      x: 0.0
      y: 0.08
      z: 0.023
    rotation:
      x: -0.6797551528118556
      y: 0.19373891934860282
      z: 0.19389326030236906
      w: 0.680296675697217
- header:
    stamp:
      sec: 1727346921
      nanosec: 885502296
    frame_id: base_link
  child_frame_id: wheel_right_link
  transform:
    translation:
      x: 0.0
      y: -0.08
      z: 0.023
    rotation:
      x: -0.6623458294621813
      y: -0.24677892705555043
      z: -0.24697552201488654
      w: 0.6628734833140039
---
transforms:
- header:
    stamp:
      sec: 1727346921
      nanosec: 885502296
    frame_id: odom
  child_frame_id: base_footprint
  transform:
    translation:
      x: 0.1637575082721515
      y: -0.12288687997406561
      z: 0.0
    rotation:
      x: 0.0
      y: 0.0
      z: -0.3169401244504212
      w: 0.9484455479959572
---
transforms:
- header:
    stamp:
      sec: 1727346921
      nanosec: 935570507
    frame_id: base_link
  child_frame_id: wheel_left_link
  transform:
    translation:
      x: 0.0
      y: 0.08
      z: 0.023
    rotation:
      x: -0.6797551528118556
      y: 0.19373891934860282
      z: 0.19389326030236906
      w: 0.680296675697217
- header:
    stamp:
      sec: 1727346921
      nanosec: 935570507
    frame_id: base_link
  child_frame_id: wheel_right_link
  transform:
    translation:
      x: 0.0
      y: -0.08
      z: 0.023
    rotation:
      x: -0.6623458294621813
      y: -0.24677892705555043
      z: -0.24697552201488654
      w: 0.6628734833140039
---
transforms:
- header:
    stamp:
      sec: 1727346921
      nanosec: 935570507
    frame_id: odom
  child_frame_id: base_footprint
  transform:
    translation:
      x: 0.1637575082721515
      y: -0.12288687997406561
      z: 0.0
    rotation:
      x: 0.0
      y: 0.0
      z: -0.3169408876290783
      w: 0.9484452929657524
---
transforms:
- header:
    stamp:
      sec: 1727346921
      nanosec: 985523664
    frame_id: odom
  child_frame_id: base_footprint
  transform:
    translation:
      x: 0.1637575082721515
      y: -0.12288687997406561
      z: 0.0
    rotation:
      x: 0.0
      y: 0.0
      z: -0.31695335285142784
      w: 0.9484411273854789
---
transforms:
- header:
    stamp:
      sec: 1727346922
      nanosec: 35507302
    frame_id: base_link
  child_frame_id: wheel_left_link
  transform:
    translation:
      x: 0.0
      y: 0.08
      z: 0.023
    rotation:
      x: -0.6797551528118556
      y: 0.19373891934860282
      z: 0.19389326030236906
      w: 0.680296675697217
- header:
    stamp:
      sec: 1727346922
      nanosec: 35507302
    frame_id: base_link
  child_frame_id: wheel_right_link
  transform:
    translation:
      x: 0.0
      y: -0.08
      z: 0.023
    rotation:
      x: -0.6623458294621813
      y: -0.24677892705555043
      z: -0.24697552201488654
      w: 0.6628734833140039
---
transforms:
- header:
    stamp:
      sec: 1727346922
      nanosec: 35507302
    frame_id: odom
  child_frame_id: base_footprint
  transform:
    translation:
      x: 0.1637575082721515
      y: -0.12288687997406561
      z: 0.0
    rotation:
      x: 0.0
      y: 0.0
      z: -0.31693495178966974
      w: 0.948447276517825
---
transforms:
- header:
    stamp:
      sec: 1727346922
      nanosec: 85567384
    frame_id: base_link
  child_frame_id: wheel_left_link
  transform:
    translation:
      x: 0.0
      y: 0.08
      z: 0.023
    rotation:
      x: -0.6797551528118556
      y: 0.19373891934860282
      z: 0.19389326030236906
      w: 0.680296675697217
- header:
    stamp:
      sec: 1727346922
      nanosec: 85567384
    frame_id: base_link
  child_frame_id: wheel_right_link
  transform:
    translation:
      x: 0.0
      y: -0.08
      z: 0.023
    rotation:
      x: -0.6623458294621813
      y: -0.24677892705555043
      z: -0.24697552201488654
      w: 0.6628734833140039
---
transforms:
- header:
    stamp:
      sec: 1727346922
      nanosec: 85567384
    frame_id: odom
  child_frame_id: base_footprint
  transform:
    translation:
      x: 0.1637575082721515
      y: -0.12288687997406561
      z: 0.0
    rotation:
      x: 0.0
      y: 0.0
      z: -0.31694812368318537
      w: 0.9484428748710743
---
transforms:
- header:
    stamp:
      sec: 1727346922
      nanosec: 135579429
    frame_id: base_link
  child_frame_id: wheel_left_link
  transform:
    translation:
      x: 0.0
      y: 0.08
      z: 0.023
    rotation:
      x: -0.6797551528118556
      y: 0.19373891934860282
      z: 0.19389326030236906
      w: 0.680296675697217
- header:
    stamp:
      sec: 1727346922
      nanosec: 135579429
    frame_id: base_link
  child_frame_id: wheel_right_link
  transform:
    translation:
      x: 0.0
      y: -0.08
      z: 0.023
    rotation:
      x: -0.6623458294621813
      y: -0.24677892705555043
      z: -0.24697552201488654
      w: 0.6628734833140039
---
transforms:
- header:
    stamp:
      sec: 1727346922
      nanosec: 135579429
    frame_id: odom
  child_frame_id: base_footprint
  transform:
    translation:
      x: 0.1637575082721515
      y: -0.12288687997406561
      z: 0.0
    rotation:
      x: 0.0
      y: 0.0
      z: -0.3169356019060199
      w: 0.9484470592734572
---
transforms:
- header:
    stamp:
      sec: 1727346922
      nanosec: 185525605
    frame_id: odom
  child_frame_id: base_footprint
  transform:
    translation:
      x: 0.1637575082721515
      y: -0.12288687997406561
      z: 0.0
    rotation:
      x: 0.0
      y: 0.0
      z: -0.3169401244504212
      w: 0.9484455479959572
---
transforms:
- header:
    stamp:
      sec: 1727346922
      nanosec: 235554595
    frame_id: base_link
  child_frame_id: wheel_left_link
  transform:
    translation:
      x: 0.0
      y: 0.08
      z: 0.023
    rotation:
      x: -0.6797551528118556
      y: 0.19373891934860282
      z: 0.19389326030236906
      w: 0.680296675697217
- header:
    stamp:
      sec: 1727346922
      nanosec: 235554595
    frame_id: base_link
  child_frame_id: wheel_right_link
  transform:
    translation:
      x: 0.0
      y: -0.08
      z: 0.023
    rotation:
      x: -0.6623458294621813
      y: -0.24677892705555043
      z: -0.24697552201488654
      w: 0.6628734833140039
---
transforms:
- header:
    stamp:
      sec: 1727346922
      nanosec: 235554595
    frame_id: odom
  child_frame_id: base_footprint
  transform:
    translation:
      x: 0.1637575082721515
      y: -0.12288687997406561
      z: 0.0
    rotation:
      x: 0.0
      y: 0.0
      z: -0.3169394460692204
      w: 0.948445774688957
---
transforms:
- header:
    stamp:
      sec: 1727346922
      nanosec: 285520789
    frame_id: odom
  child_frame_id: base_footprint
  transform:
    translation:
      x: 0.1637575082721515
      y: -0.12288687997406561
      z: 0.0
    rotation:
      x: 0.0
      y: 0.0
      z: -0.31694394034165446
      w: 0.9484442728387924
---
transforms:
- header:
    stamp:
      sec: 1727346922
      nanosec: 335504056
    frame_id: base_link
  child_frame_id: wheel_left_link
  transform:
    translation:
      x: 0.0
      y: 0.08
      z: 0.023
    rotation:
      x: -0.6797551528118556
      y: 0.19373891934860282
      z: 0.19389326030236906
      w: 0.680296675697217
- header:
    stamp:
      sec: 1727346922
      nanosec: 335504056
    frame_id: base_link
  child_frame_id: wheel_right_link
  transform:
    translation:
      x: 0.0
      y: -0.08
      z: 0.023
    rotation:
      x: -0.6623458294621813
      y: -0.24677892705555043
      z: -0.24697552201488654
      w: 0.6628734833140039
---
transforms:
- header:
    stamp:
      sec: 1727346922
      nanosec: 335504056
    frame_id: odom
  child_frame_id: base_footprint
  transform:
    translation:
      x: 0.1637575082721515
      y: -0.12288687997406561
      z: 0.0
    rotation:
      x: 0.0
      y: 0.0
      z: -0.3169443643292526
      w: 0.9484441311537154
---
transforms:
- header:
    stamp:
      sec: 1727346922
      nanosec: 385605952
    frame_id: base_link
  child_frame_id: wheel_left_link
  transform:
    translation:
      x: 0.0
      y: 0.08
      z: 0.023
    rotation:
      x: -0.6797551528118556
      y: 0.19373891934860282
      z: 0.19389326030236906
      w: 0.680296675697217
- header:
    stamp:
      sec: 1727346922
      nanosec: 385605952
    frame_id: base_link
  child_frame_id: wheel_right_link
  transform:
    translation:
      x: 0.0
      y: -0.08
      z: 0.023
    rotation:
      x: -0.6623458294621813
      y: -0.24677892705555043
      z: -0.24697552201488654
      w: 0.6628734833140039
---
transforms:
- header:
    stamp:
      sec: 1727346922
      nanosec: 385605952
    frame_id: odom
  child_frame_id: base_footprint
  transform:
    translation:
      x: 0.1637575082721515
      y: -0.12288687997406561
      z: 0.0
    rotation:
      x: 0.0
      y: 0.0
      z: -0.3169440816708609
      w: 0.9484442256104545
---
transforms:
- header:
    stamp:
      sec: 1727346922
      nanosec: 435523962
    frame_id: odom
  child_frame_id: base_footprint
  transform:
    translation:
      x: 0.1637575082721515
      y: -0.12288687997406561
      z: 0.0
    rotation:
      x: 0.0
      y: 0.0
      z: -0.31695759271049745
      w: 0.9484397104841016
---
transforms:
- header:
    stamp:
      sec: 1727346922
      nanosec: 485513896
    frame_id: base_link
  child_frame_id: wheel_left_link
  transform:
    translation:
      x: 0.0
      y: 0.08
      z: 0.023
    rotation:
      x: -0.6797551528118556
      y: 0.19373891934860282
      z: 0.19389326030236906
      w: 0.680296675697217
- header:
    stamp:
      sec: 1727346922
      nanosec: 485513896
    frame_id: base_link
  child_frame_id: wheel_right_link
  transform:
    translation:
      x: 0.0
      y: -0.08
      z: 0.023
    rotation:
      x: -0.6623458294621813
      y: -0.24677892705555043
      z: -0.24697552201488654
      w: 0.6628734833140039
---
transforms:
- header:
    stamp:
      sec: 1727346922
      nanosec: 485513896
    frame_id: odom
  child_frame_id: base_footprint
  transform:
    translation:
      x: 0.1637575082721515
      y: -0.12288687997406561
      z: 0.0
    rotation:
      x: 0.0
      y: 0.0
      z: -0.3169452971017455
      w: 0.9484438194458785
---
transforms:
- header:
    stamp:
      sec: 1727346922
      nanosec: 535547256
    frame_id: base_link
  child_frame_id: wheel_left_link
  transform:
    translation:
      x: 0.0
      y: 0.08
      z: 0.023
    rotation:
      x: -0.6797551528118556
      y: 0.19373891934860282
      z: 0.19389326030236906
      w: 0.680296675697217
- header:
    stamp:
      sec: 1727346922
      nanosec: 535547256
    frame_id: base_link
  child_frame_id: wheel_right_link
  transform:
    translation:
      x: 0.0
      y: -0.08
      z: 0.023
    rotation:
      x: -0.6623458294621813
      y: -0.24677892705555043
      z: -0.24697552201488654
      w: 0.6628734833140039
---
transforms:
- header:
    stamp:
      sec: 1727346922
      nanosec: 535547256
    frame_id: odom
  child_frame_id: base_footprint
  transform:
    translation:
      x: 0.1637575082721515
      y: -0.12288687997406561
      z: 0.0
    rotation:
      x: 0.0
      y: 0.0
      z: -0.316961549906581
      w: 0.9484383880257157
---
transforms:
- header:
    stamp:
      sec: 1727346922
      nanosec: 585517043
    frame_id: odom
  child_frame_id: base_footprint
  transform:
    translation:
      x: 0.1637575082721515
      y: -0.12288687997406561
      z: 0.0
    rotation:
      x: 0.0
      y: 0.0
      z: -0.3169531267254329
      w: 0.94844120295302
---
transforms:
- header:
    stamp:
      sec: 1727346922
      nanosec: 635503088
    frame_id: base_link
  child_frame_id: wheel_left_link
  transform:
    translation:
      x: 0.0
      y: 0.08
      z: 0.023
    rotation:
      x: -0.6797551528118556
      y: 0.19373891934860282
      z: 0.19389326030236906
      w: 0.680296675697217
- header:
    stamp:
      sec: 1727346922
      nanosec: 635503088
    frame_id: base_link
  child_frame_id: wheel_right_link
  transform:
    translation:
      x: 0.0
      y: -0.08
      z: 0.023
    rotation:
      x: -0.6623458294621813
      y: -0.24677892705555043
      z: -0.24697552201488654
      w: 0.6628734833140039
---
transforms:
- header:
    stamp:
      sec: 1727346922
      nanosec: 635503088
    frame_id: odom
  child_frame_id: base_footprint
  transform:
    translation:
      x: 0.1637575082721515
      y: -0.12288687997406561
      z: 0.0
    rotation:
      x: 0.0
      y: 0.0
      z: -0.3169432054296677
      w: 0.9484445184258105
---
transforms:
- header:
    stamp:
      sec: 1727346922
      nanosec: 685578633
    frame_id: base_link
  child_frame_id: wheel_left_link
  transform:
    translation:
      x: 0.0
      y: 0.08
      z: 0.023
    rotation:
      x: -0.6797551528118556
      y: 0.19373891934860282
      z: 0.19389326030236906
      w: 0.680296675697217
- header:
    stamp:
      sec: 1727346922
      nanosec: 685578633
    frame_id: base_link
  child_frame_id: wheel_right_link
  transform:
    translation:
      x: 0.0
      y: -0.08
      z: 0.023
    rotation:
      x: -0.6623458294621813
      y: -0.24677892705555043
      z: -0.24697552201488654
      w: 0.6628734833140039
---
transforms:
- header:
    stamp:
      sec: 1727346922
      nanosec: 685578633
    frame_id: odom
  child_frame_id: base_footprint
  transform:
    translation:
      x: 0.1637575082721515
      y: -0.12288687997406561
      z: 0.0
    rotation:
      x: 0.0
      y: 0.0
      z: -0.3169474735697035
      w: 0.9484430921240252
---
transforms:
- header:
    stamp:
      sec: 1727346922
      nanosec: 735493864
    frame_id: odom
  child_frame_id: base_footprint
  transform:
    translation:
      x: 0.1637575082721515
      y: -0.12288687997406561
      z: 0.0
    rotation:
      x: 0.0
      y: 0.0
      z: -0.3169527027391438
      w: 0.9484413446420142
---
